,city,lat,lng,max temp,humidity,cloudiness,wind_speed,country,date
0,Petropavlovsk-Kamchatskiy,53.0452,158.6483,55.99,94,75,2.24,RU,1689894723
1,Waitangi,-43.9535,-176.5597,45.82,94,85,3.0,NZ,1689894527
2,Ribeira Grande,38.5167,-28.7,72.0,88,40,5.99,PT,1689894725
3,George Town,5.4112,100.3354,82.33,83,20,5.75,MY,1689894696
4,Corcoran,36.098,-119.5604,102.34,9,0,7.61,US,1689894608
5,Broken Hill,-31.95,141.4333,45.21,75,1,12.55,AU,1689894729
6,Naryan-Mar,67.6713,53.087,51.6,93,99,12.21,RU,1689894730
7,Labrador City,52.9463,-66.9114,64.4,58,67,4.92,CA,1689894609
8,San Antonio de Palé,-1.4014,5.6325,74.5,78,48,10.45,GQ,1689894733
9,Omutinskiy,56.4745,67.6709,60.57,93,60,5.82,RU,1689894734
10,Invercargill,-46.4,168.35,41.67,73,6,8.5,NZ,1689894506
11,Homer,59.6425,-151.5483,60.69,75,100,12.66,US,1689894624
12,Crane,31.3974,-102.3501,99.59,16,100,18.3,US,1689894737
13,Bilibino,68.0546,166.4372,67.3,53,60,3.47,RU,1689894739
14,Vawkavysk,53.1561,24.4513,52.97,94,54,7.07,BY,1689894740
15,Adamstown,-25.066,-130.1015,71.06,89,100,31.7,PN,1689894741
16,La Passe,45.5549,-0.8967,63.99,79,58,11.05,FR,1689894742
17,Horta,38.5333,-28.6333,71.24,92,40,7.0,PT,1689894743
18,Margaret River,-33.95,115.0667,58.69,69,25,18.79,AU,1689894745
19,Enewetak,11.3474,162.3373,83.68,79,66,14.16,MH,1689894746
20,Pacific Grove,36.6177,-121.9166,83.39,85,20,11.5,US,1689894747
21,Sitka,57.0531,-135.33,64.29,68,75,0.0,US,1689894705
22,Port Mathurin,-19.6833,63.4167,73.81,69,11,16.98,MU,1689894750
23,Puerto Natales,-51.7236,-72.4875,31.55,97,100,6.91,CL,1689894751
24,Oban,56.4127,-5.4706,53.38,87,99,2.8,GB,1689894752
25,Kurumkan,54.3,110.3,63.84,59,36,4.14,RU,1689894753
26,Acapulco de Juárez,16.8634,-99.8901,89.42,70,0,13.8,MX,1689894457
27,Ilulissat,69.2167,-51.1,48.22,87,40,4.61,GL,1689894756
28,Kosh-Agach,50.0,88.6667,57.0,77,41,2.42,RU,1689894757
29,Punta Arenas,-53.15,-70.9167,31.21,88,100,18.12,CL,1689894719
30,Slave Lake,55.2834,-114.769,73.38,64,0,4.61,CA,1689894759
31,Bredasdorp,-34.5322,20.0403,44.55,84,0,3.78,ZA,1689894761
32,Korets,50.6165,27.1605,54.12,96,3,5.57,UA,1689894762
33,Aykhal,66.0,111.5,60.98,81,91,12.8,RU,1689894763
34,Macheng,31.1783,115.0319,77.52,96,100,2.68,CN,1689894764
35,Mata-Utu,-13.2816,-176.1745,82.42,80,100,11.1,WF,1689894765
36,Uturoa,-16.7333,-151.4333,75.94,64,15,18.75,PF,1689894767
37,Saint-Joseph,-21.3667,55.6167,67.48,70,10,3.31,RE,1689894768
38,Borkum,53.5809,6.6915,62.55,71,30,9.66,DE,1689894769
39,Hawaiian Paradise Park,19.5933,-154.9731,81.73,78,100,8.05,US,1689894491
40,Port-aux-Français,-49.35,70.2167,35.17,48,62,33.24,TF,1689894713
41,Albany,42.6001,-73.9662,81.01,56,42,1.01,US,1689894668
42,Rabo de Peixe,37.8,-25.5833,69.31,83,20,1.14,PT,1689894774
43,Stanley,54.868,-1.6985,53.06,92,0,5.75,GB,1689894775
44,Kapuskasing,49.4169,-82.4331,73.49,49,75,5.75,CA,1689894776
45,Grytviken,-54.2811,-36.5092,28.44,91,96,3.98,GS,1689894778
46,Atafu Village,-8.5421,-172.5159,83.23,77,24,12.62,TK,1689894779
47,Alo,7.4178,6.7371,74.01,98,83,3.36,NG,1689894780
48,Kalifornsky,60.4183,-151.29,61.39,77,40,9.22,US,1689894781
49,Hithadhoo,-0.6,73.0833,82.85,73,25,18.37,MV,1689894783
50,Mount Gambier,-37.8333,140.7667,47.86,78,94,3.94,AU,1689894784
51,Thompson,55.7435,-97.8558,78.96,31,75,12.66,CA,1689894785
52,Puerto Armuelles,8.2833,-82.8667,88.09,73,95,7.0,PA,1689894786
53,São João da Barra,-21.6403,-41.0511,68.09,73,96,11.16,BR,1689894518
54,Blackmans Bay,-43.0167,147.3167,46.53,75,18,4.9,AU,1689894789
55,Hadibu,12.65,54.0333,77.13,81,82,21.12,YE,1689894790
56,Chulakkurgan,43.765,69.1814,78.49,28,48,11.7,KZ,1689894792
57,Merowe,18.4833,31.8167,98.15,13,48,6.31,SD,1689894793
58,Talnakh,69.4865,88.3972,63.21,96,71,7.25,RU,1689894794
59,Yellowknife,62.456,-114.3525,80.17,35,46,10.11,CA,1689894786
60,Edinburgh of the Seven Seas,-37.0676,-12.3116,52.9,57,45,22.59,SH,1689894797
61,Fale old settlement,-9.3852,-171.2468,83.3,77,38,12.03,TK,1689894798
62,Hermanus,-34.4187,19.2345,46.8,79,0,8.93,ZA,1689894799
63,Lebu,-37.6167,-73.65,53.89,95,100,13.91,CL,1689894800
64,West Island,-12.1568,96.8225,76.98,69,40,14.97,CC,1689894802
65,Ushuaia,-54.8,-68.3,31.66,69,75,4.61,AR,1689894803
66,Iqaluit,63.7506,-68.5145,40.73,100,100,5.01,CA,1689894804
67,Nagqu Prefecture,31.5,92.0,31.86,76,0,2.57,CN,1689894805
68,Severo-Yeniseyskiy,60.3725,93.0408,60.26,61,0,3.76,RU,1689894807
69,Ambon City,-3.6954,128.1814,84.24,100,40,5.75,ID,1689894794
70,Chibougamau,49.9168,-74.3659,67.62,68,100,6.31,CA,1689894809
71,Avarua,-21.2078,-159.775,73.45,49,20,13.8,CK,1689894810
72,Buritis,-15.6178,-46.4233,73.24,50,17,7.36,BR,1689894812
73,Tiksi,71.6872,128.8694,45.36,64,55,16.06,RU,1689894813
74,Taoudenni,22.6783,-3.9836,100.6,8,16,1.1,ML,1689894814
75,Hilo,19.7297,-155.09,81.25,82,100,8.05,US,1689894649
76,Dzhezkazgan,47.7833,67.7667,80.28,30,94,7.92,KZ,1689894816
77,Isafjordur,66.0755,-23.124,51.06,77,29,1.39,IS,1689894818
78,Yashikira,9.7667,3.4,75.34,85,64,9.28,NG,1689894819
79,Bafoulabé,13.8065,-10.8321,81.61,76,57,4.97,ML,1689894820
80,Acaraú,-2.8856,-40.12,77.95,71,2,16.22,BR,1689894821
81,Hastings,50.8552,0.5729,63.52,38,95,4.05,GB,1689894823
82,Touros,-5.1989,-35.4608,75.87,73,14,15.01,BR,1689894824
83,Keflavik,64.0049,-22.5624,53.51,93,75,2.3,IS,1689894825
84,Callao,-12.0667,-77.15,74.71,68,0,13.8,PE,1689894826
85,Tsimmerbude,54.675,20.1347,57.25,79,31,12.5,RU,1689894828
86,Aasiaat,68.7098,-52.8699,39.04,98,98,13.15,GL,1689894829
87,Belle Fourche,44.6714,-103.8522,77.32,43,86,5.64,US,1689894830
88,Pandan,14.0453,124.1694,81.16,85,91,3.4,PH,1689894831
89,Lascano,-33.6667,-54.2,54.64,93,100,6.82,UY,1689894833
90,Sinabang,2.4803,96.3801,78.31,82,100,4.92,ID,1689894834
91,Liwale,-9.7667,37.9333,63.77,93,10,1.74,TZ,1689894835
92,Vorkuta,67.5,64.0,63.37,84,54,5.68,RU,1689894836
93,Hamilton,39.1834,-84.5333,86.09,76,40,9.22,US,1689894565
94,Kalmunai,7.4167,81.8167,79.95,66,79,4.99,LK,1689894839
95,Mossamedes,-15.1961,12.1522,64.2,80,72,4.63,AO,1689894840
96,Susuman,62.7833,148.1667,75.9,47,9,5.7,RU,1689894841
97,Egilsstadir,65.2653,-14.3948,40.91,100,100,5.75,IS,1689894842
98,San Patricio,28.017,-97.5169,97.52,46,17,16.26,US,1689894844
99,Tataouine,32.9297,10.4518,88.12,22,0,5.1,TN,1689894845
100,Naracoorte,-36.9579,140.7383,45.73,81,72,5.88,AU,1689894846
101,Võru,57.8339,27.0194,49.28,94,30,5.21,EE,1689894847
102,Coyhaique,-45.5752,-72.0662,40.95,93,100,4.61,CL,1689894731
103,Rémire-Montjoly,4.9167,-52.2667,75.24,100,100,2.3,GF,1689894850
104,Vila Franca do Campo,37.7167,-25.4333,70.21,78,99,0.81,PT,1689894851
105,Uíge,-7.6087,15.0613,63.07,66,32,2.17,AO,1689894852
106,Gadzhiyevo,69.2551,33.3362,47.41,88,100,14.65,RU,1689894854
107,Jinghong,21.991,100.7341,72.57,100,99,0.67,CN,1689894855
108,Olonkinbyen,70.9221,-8.7187,42.04,81,100,2.82,SJ,1689894856
109,Flying Fish Cove,-10.4217,105.6791,74.88,78,75,12.66,CX,1689894857
110,Ancud,-41.8697,-73.8203,51.35,88,67,18.81,CL,1689894859
111,Page,36.9147,-111.4558,105.58,12,0,15.01,US,1689894860
112,La Mira,18.035,-102.3266,88.05,69,84,9.64,MX,1689894861
113,Inongo,-1.95,18.2667,73.06,57,6,5.68,CD,1689894862
114,Holualoa,19.6228,-155.9522,81.86,87,75,11.5,US,1689894864
115,Finisterra,42.9049,-9.2629,62.74,87,0,3.62,ES,1689894865
116,Elliot Lake,46.3834,-82.6331,63.19,94,100,5.08,CA,1689894866
117,Port Lincoln,-34.7333,135.8667,53.31,63,53,6.31,AU,1689894867
118,Lihue,21.9789,-159.3672,87.39,61,20,19.57,US,1689894828
119,Fada,9.5667,8.3,68.68,98,96,2.04,NG,1689894870
120,Fortuna,40.5982,-124.1573,71.92,74,0,13.8,US,1689894646
121,Salinópolis,-0.6136,-47.3561,78.62,83,4,11.21,BR,1689894872
122,Suva,-18.1416,178.4415,78.28,83,75,8.05,FJ,1689894791
123,Ust'-Kut,56.7938,105.7672,62.53,65,0,1.36,RU,1689894875
124,Happy Valley-Goose Bay,53.3168,-60.3315,71.91,49,75,6.91,CA,1689894876
125,Udachny,66.4167,112.4,57.45,93,85,0.89,RU,1689894877
126,Birjand,32.8663,59.2211,72.07,30,0,4.61,IR,1689894879
127,Skowhegan,44.7651,-69.7192,78.37,76,87,2.19,US,1689894880
128,Yamethin,20.4333,96.15,75.61,92,97,6.76,MM,1689894881
129,New Plymouth,-39.0667,174.0833,50.81,71,100,26.24,NZ,1689894882
130,Qaqortoq,60.7167,-46.0333,45.43,97,100,3.8,GL,1689894883
131,Rosa,45.9306,12.8708,74.91,83,0,5.75,IT,1689894885
132,Al Jawf,29.5,38.75,84.15,19,0,15.7,SA,1689894886
133,Griviţa,44.7333,27.2833,68.79,81,67,6.98,RO,1689894887
134,Papatowai,-46.5619,169.4708,44.02,66,10,20.11,NZ,1689894888
135,Kerikeri,-35.2268,173.9474,52.92,96,16,3.06,NZ,1689894631
136,Jamestown,42.097,-79.2353,74.84,73,100,13.8,US,1689894891
137,Yinchuan,38.4681,106.2731,70.5,49,27,0.92,CN,1689894820
138,Cole Harbour,44.6724,-63.4751,72.95,90,100,5.99,CA,1689894893
139,Pisco,-13.7,-76.2167,68.05,73,0,18.41,PE,1689894865
140,Sainyabuli,19.25,101.75,71.51,100,100,0.94,LA,1689894896
141,Padang,-0.9492,100.3543,73.45,87,100,2.24,ID,1689894897
142,Chemolgan,43.1897,76.5292,64.06,51,13,4.92,KZ,1689894898
143,Chonchi,-42.6128,-73.8092,51.12,82,64,9.28,CL,1689894899
144,Cururupu,-1.8283,-44.8683,74.59,91,42,3.0,BR,1689894637
145,Puerto Ayora,-0.7393,-90.3518,78.55,93,45,7.0,EC,1689894902
146,Alto Araguaia,-17.3147,-53.2153,77.72,32,36,6.26,BR,1689894904
147,Madhipura,25.9167,86.7833,85.91,73,94,6.02,IN,1689894905
148,Selfoss,63.9331,-20.9971,53.04,91,98,6.44,IS,1689894906
149,Waingapu,-9.6567,120.2641,73.31,85,2,7.52,ID,1689894907
150,Ergani,38.2653,39.7621,79.97,20,0,1.19,TR,1689894909
151,Tofol,5.3248,163.0078,87.58,74,75,3.44,FM,1689894911
152,Vila Velha,-20.3297,-40.2925,71.55,87,100,6.91,BR,1689894913
153,Tura,25.5198,90.2201,73.11,97,100,2.3,IN,1689894914
154,Kendari,-3.945,122.4989,74.75,93,27,1.95,ID,1689894915
155,Hammerfest,70.6634,23.6821,46.85,93,75,9.22,NO,1689894917
156,Førde,61.4522,5.8572,52.54,93,100,0.0,NO,1689894918
157,Galle,6.0367,80.217,79.86,85,71,13.56,LK,1689894919
158,Richards Bay,-28.783,32.0377,57.29,78,100,8.3,ZA,1689894921
159,Yaren,-0.5472,166.916,81.37,81,100,10.89,NR,1689894922
160,Aras-asan,8.8908,126.3033,78.84,85,80,4.72,PH,1689894923
161,Basco,20.4487,121.9702,84.22,76,74,11.25,PH,1689894925
162,Ifrane,33.3333,-5.25,71.38,42,43,8.43,MA,1689894926
163,Vilyuysk,63.7553,121.6247,66.36,64,12,6.17,RU,1689894927
164,Longyearbyen,78.2186,15.6401,49.84,76,20,16.11,SJ,1689894928
165,Tsiombe,-25.3,45.4833,65.86,81,25,10.92,MG,1689894930
166,Saint-François,46.4154,3.9054,67.44,68,0,0.0,FR,1689894911
167,Usinsk,65.9939,57.5281,62.74,85,57,7.56,RU,1689894932
168,Ust-Nera,64.5667,143.2,80.51,37,75,5.84,RU,1689894933
169,Bathsheba,13.2167,-59.5167,81.21,89,20,8.05,BB,1689894935
170,Greymouth,-42.4667,171.2,46.17,69,69,17.0,NZ,1689894936
171,Westport,41.1415,-73.3579,82.74,67,0,6.91,US,1689894638
172,Busan,35.1028,129.0403,75.94,83,11,7.0,KR,1689894777
173,Jiaozhou,36.2839,120.0033,80.56,80,69,9.84,CN,1689894939
174,Bethel,41.3712,-73.414,81.48,69,0,5.75,US,1689894941
175,Saint-Philippe,-21.3585,55.7679,67.59,77,19,4.54,RE,1689894942
176,Anadyr,64.75,177.4833,55.9,93,100,6.71,RU,1689894943
177,Reggane,26.7158,0.1714,98.56,8,0,13.98,DZ,1689894944
178,St. John's,47.5649,-52.7093,76.39,78,40,11.5,CA,1689894789
179,Saint Paul Harbor,57.79,-152.4072,56.71,82,0,5.75,US,1689894947
180,Minas de Marcona,-15.2119,-75.1103,57.87,77,6,9.51,PE,1689894948
181,Ripky,51.801,31.0838,60.12,97,86,8.08,UA,1689894949
182,Vangaindrano,-23.35,47.6,66.09,91,32,7.31,MG,1689894951
183,Lao Cai,22.4833,103.95,75.81,98,78,0.45,VN,1689894952
184,Lázaro Cárdenas,17.9583,-102.2,87.57,71,80,12.26,MX,1689894953
185,Natal,-5.795,-35.2094,75.42,83,20,6.91,BR,1689894954
186,Verkhnevilyuysk,63.4453,120.3167,66.56,67,28,3.2,RU,1689894955
187,Aromashevo,56.8602,68.6375,59.65,94,25,6.53,RU,1689894957
188,Chernyshevskiy,63.0128,112.4714,62.42,76,99,2.8,RU,1689894958
189,Northam,51.0333,-4.2167,58.6,74,45,8.52,GB,1689894959
190,Ixtapa,20.7,-105.2,90.23,79,75,13.8,MX,1689894960
191,Constanța,44.1833,28.65,70.7,83,91,5.7,RO,1689894962
192,Amahai,-3.3333,128.9167,82.0,84,42,7.87,ID,1689894966
193,Kinkala,-4.3614,14.7644,71.28,57,12,4.29,CG,1689894969
194,Cutral-Có,-38.9469,-69.2089,57.9,10,98,10.45,AR,1689894970
195,Barra de Santo Antônio,-9.4047,-35.5072,72.68,74,30,13.42,BR,1689894971
196,Daru,-9.0763,143.2092,78.01,75,96,11.39,PG,1689894973
197,Tazovsky,67.4667,78.7,62.71,73,73,8.79,RU,1689894974
198,Butterworth,5.3991,100.3638,82.44,83,40,4.61,MY,1689894975
199,Bengaluru,12.9762,77.6033,71.24,88,40,13.8,IN,1689894892
200,Utrik,11.2278,169.8474,83.34,78,65,19.24,MH,1689894978
201,Corner Brook,48.9667,-57.9484,69.96,93,100,1.54,CA,1689894928
202,Dudinka,69.4058,86.1778,63.63,97,70,10.4,RU,1689894981
203,Kittilä,67.6647,24.8936,50.61,93,100,9.22,FI,1689894982
204,Wailua Homesteads,22.0669,-159.378,86.79,71,20,19.57,US,1689894983
205,Champerico,14.3,-91.9167,93.74,67,6,6.96,GT,1689894985
206,Vrangel',42.7297,133.0839,68.11,90,47,3.78,RU,1689894986
207,As Sulayyil,20.4607,45.5779,95.25,9,95,3.69,SA,1689894987
208,Vilyuchinsk,52.9306,158.4028,55.67,94,100,0.81,RU,1689894990
209,Kuta,-8.7233,115.1723,75.15,83,40,3.44,ID,1689894991
210,Harper,4.375,-7.7169,76.42,86,70,10.47,LR,1689894992
211,Souillac,-20.5167,57.5167,64.78,94,20,4.61,MU,1689894993
212,Slaton,33.4373,-101.6435,99.5,17,20,13.24,US,1689894995
213,Turpan,42.9333,89.1667,92.93,25,90,3.83,CN,1689894996
214,Kapaa,22.0752,-159.319,88.12,68,20,19.57,US,1689894997
215,Port Elizabeth,-33.918,25.5701,53.89,58,0,13.8,ZA,1689894998
216,Badger,64.8,-147.5333,70.05,83,75,0.0,US,1689894999
217,Bel Ombre,-4.6167,55.4167,78.64,83,20,16.11,SC,1689895001
218,Contamana,-7.3333,-75.0167,77.67,80,59,0.92,PE,1689895002
219,Soto la Marina,23.7667,-98.2167,94.89,39,6,19.08,MX,1689894726
220,Trondheim,63.4305,10.3951,56.91,84,98,1.01,NO,1689894915
221,Cabo San Lucas,22.8909,-109.9124,96.19,43,0,19.57,MX,1689895005
222,Cabañas,22.9758,-82.9219,85.82,70,81,11.54,CU,1689895007
223,Weno,7.4515,151.8468,84.15,84,100,8.05,FM,1689895008
224,Gillette,44.2911,-105.5022,80.11,44,0,11.5,US,1689895009
225,Whitehorse,60.7161,-135.0538,80.02,33,75,6.91,CA,1689895010
226,Haiku-Pauwela,20.9219,-156.3051,83.17,67,40,23.02,US,1689895012
227,Nova Sintra,14.8667,-24.7167,74.52,82,20,6.29,CV,1689894980
228,Bad Salzdetfurth,52.0578,10.0058,58.28,68,64,2.57,DE,1689895014
229,Uray,60.1247,64.7758,61.09,93,86,4.16,RU,1689895015
230,Khabarovsk,48.4808,135.0928,82.2,69,0,8.99,RU,1689895017
231,Mogadishu,2.0371,45.3438,77.0,88,74,18.84,SO,1689895018
232,Kuanda,56.3161,116.0806,54.27,79,88,2.59,RU,1689895019
233,Tralee,52.2704,-9.7026,52.59,88,33,6.15,IE,1689895020
234,Cologne,50.9333,6.95,63.86,82,20,5.75,DE,1689895007
235,Geraldton,-28.7667,114.6,43.21,93,0,11.5,AU,1689895023
236,Lüderitz,-26.6481,15.1594,58.69,47,0,4.97,NA,1689895024
237,Kutum,14.2,24.6667,79.9,47,94,15.37,SD,1689895025
238,Tulu Bolo,8.6667,38.2167,56.95,95,100,8.32,ET,1689895026
239,Saint Croix,17.7397,-64.7388,82.85,74,100,6.91,VI,1689895028
240,Samaná,19.2056,-69.3369,84.16,79,18,8.01,DO,1689894910
241,Nouadhibou,20.931,-17.0347,71.58,88,75,14.97,MR,1689895030
242,Purpe,64.4803,76.6897,66.83,59,61,9.8,RU,1689895031
243,Wailea,19.8858,-155.123,80.44,84,100,8.05,US,1689895032
244,Paka,4.6374,103.4368,75.13,94,20,0.0,MY,1689895034
245,Bairnsdale,-37.8333,147.6167,48.06,88,84,1.01,AU,1689895035
246,Timbiquí,2.7717,-77.6654,80.55,90,59,6.02,CO,1689895037
247,Sena Madureira,-9.0656,-68.6569,80.02,54,21,1.72,BR,1689895038
248,Sechura,-5.5569,-80.8222,76.37,67,4,16.6,PE,1689895040
249,College,64.8569,-147.8028,70.12,85,75,0.0,US,1689895041
250,Wotje,9.4543,170.2367,83.14,82,97,19.57,MH,1689895042
251,Mugia,43.1041,-9.2179,61.92,87,0,3.24,ES,1689895043
252,Schweizer-Reneke,-27.1887,25.3293,50.34,73,40,24.2,ZA,1689895045
253,Kasane,-17.8167,25.15,57.61,39,40,6.31,BW,1689895046
254,Bo`ka,40.8108,69.1986,72.36,31,44,5.08,UZ,1689895047
255,Walvis Bay,-22.9575,14.5053,52.0,85,0,1.05,NA,1689895048
256,Likiep,9.8251,169.3107,83.52,79,79,19.95,MH,1689895050
257,Palikir,6.9248,158.1611,77.85,100,100,6.91,FM,1689895051
258,New Norfolk,-42.7826,147.0587,47.71,85,37,2.51,AU,1689895052
259,Inhambane,-23.865,35.3833,67.42,67,100,19.06,MZ,1689895053
260,Porto-Novo,6.4965,2.6036,78.62,85,97,8.48,BJ,1689895055
261,Carmelo,-33.9892,-58.2856,52.7,90,2,8.19,UY,1689895056
262,Kastsyukovichy,53.3516,32.0506,55.87,97,100,5.77,BY,1689895057
263,Mubi,10.2676,13.2644,71.67,89,56,1.25,NG,1689895059
264,Heber,40.5069,-111.4132,90.07,21,0,9.4,US,1689895060
265,Emirgazi,37.9022,33.8372,69.98,33,0,2.33,TR,1689895061
266,Wynyard,-41.0,145.7167,45.36,75,6,7.16,AU,1689895062
267,Meadow Lake,34.8014,-106.5436,100.8,17,25,1.52,US,1689895063
268,Pasni,25.2631,63.471,82.42,85,100,12.24,PK,1689895065
269,Itacarambi,-15.1022,-44.0919,77.47,42,65,10.29,BR,1689895066
270,Arraial do Cabo,-22.9661,-42.0278,66.16,77,75,5.75,BR,1689895067
271,Kingston,17.997,-76.7936,89.24,72,20,19.57,JM,1689894861
272,Iskateley,67.6803,53.1512,51.58,93,99,12.15,RU,1689895070
273,Mont-Dore,-22.2833,166.5833,72.0,99,74,9.75,NC,1689895071
274,Pampa del Infierno,-26.5052,-61.1744,67.44,52,74,5.75,AR,1689895072
275,Luwuk,-0.9516,122.7875,78.24,83,29,5.1,ID,1689895073
276,Den Helder,52.9599,4.7593,60.03,86,75,2.3,NL,1689895074
277,Farkhār,36.5729,69.8578,72.07,52,23,2.53,AF,1689895076
278,Ghanzi,-21.5667,21.7833,56.07,28,24,12.84,BW,1689895077
279,Muscat,23.6139,58.5922,86.02,76,99,11.77,OM,1689895078
280,Nakambala,-15.8324,27.7799,62.29,50,0,7.74,ZM,1689895079
281,Carlisle,40.2015,-77.1889,86.14,59,82,8.7,US,1689895051
282,Port Alfred,-33.5906,26.891,54.34,58,52,17.16,ZA,1689895082
283,Quellón,-43.1167,-73.6167,53.85,82,75,10.36,CL,1689895083
284,Spring Creek,40.7266,-115.5859,91.4,16,7,1.88,US,1689894868
285,Talodi,10.6325,30.3797,76.46,72,70,2.24,SD,1689895085
286,Simanggang,1.2472,111.4528,73.38,100,100,5.75,MY,1689895087
287,Nishinoomote,30.7333,131.0,80.47,81,100,5.73,JP,1689895088
288,Margate,51.3813,1.3862,60.31,90,91,4.0,GB,1689895089
289,Luau,-10.7073,22.2247,64.83,37,12,2.15,AO,1689895091
290,Sīwah,29.2041,25.5195,89.46,20,0,4.38,EG,1689894986
291,Florø,61.5996,5.0328,51.87,93,100,4.61,NO,1689895093
292,Igabi,10.7889,7.7749,72.32,92,100,0.74,NG,1689895094
293,Palangkaraya,-2.2,113.8333,73.36,99,98,1.32,ID,1689894800
294,Smithers,54.7804,-127.1743,86.32,26,40,10.36,CA,1689894919
295,Fort St. John,56.2499,-120.8529,80.49,32,75,3.44,CA,1689895098
296,Villa Sandino,12.0483,-84.9936,79.97,84,44,14.23,NI,1689895099
297,Rivne,50.6231,26.2274,55.15,93,1,5.1,UA,1689895100
298,Batouri,4.4333,14.3667,69.08,98,100,2.37,CM,1689895102
299,Vorgashor,67.5833,63.95,63.23,84,61,5.37,RU,1689895103
300,Oroszlány,47.4867,18.3123,61.95,61,33,1.25,HU,1689895104
301,Rio Grande,-32.035,-52.0986,59.11,98,100,10.83,BR,1689895106
302,Saipan,15.1355,145.701,86.7,100,20,11.5,MP,1689895107
303,Diepholz,52.6,8.3667,61.43,80,87,2.73,DE,1689895108
304,La Souterraine,46.2371,1.487,64.71,76,100,3.6,FR,1689895109
305,San Luis de la Loma,17.2706,-100.8939,89.31,64,32,8.99,MX,1689895111
306,Meadow Lakes,61.6247,-149.6011,68.95,74,40,4.61,US,1689895112
307,Bantay,17.5847,120.3892,83.97,77,84,6.17,PH,1689895114
308,Bonga,7.2833,36.2333,58.98,99,100,1.63,ET,1689895115
309,Cannonvale,-20.2833,148.7,69.19,72,18,8.32,AU,1689895116
310,Tshabong,-26.05,22.45,53.44,31,60,8.81,BW,1689895117
311,Sibi,29.5448,67.8764,95.76,48,69,4.34,PK,1689895119
312,General Conesa,-40.1,-64.4333,57.2,44,100,19.77,AR,1689895120
313,Hasaki,35.7333,140.8333,81.3,82,4,10.76,JP,1689895121
314,Palpa,-14.5336,-75.1856,71.4,56,0,4.41,PE,1689895123
315,Ormara,25.2088,64.6357,82.47,82,100,9.6,PK,1689895124
316,Carnarvon,-24.8667,113.6333,53.87,47,1,18.3,AU,1689895125
317,Belyy Yar,53.6039,91.3903,67.89,83,0,4.47,RU,1689895126
318,Hereford,52.0568,-2.7148,56.01,88,36,3.78,GB,1689894607
319,Sakaiminato,35.55,133.2333,76.98,88,20,3.44,JP,1689895129
320,Shingū,33.7333,135.9833,77.86,82,100,3.94,JP,1689895130
321,Murzuk,25.9155,13.9184,87.44,19,0,9.19,LY,1689895131
322,Greytown,-29.0642,30.5928,41.65,92,99,1.5,ZA,1689895132
323,Jacobina,-11.1806,-40.5183,68.7,64,30,11.43,BR,1689895134
324,Belokurikha,51.9959,84.9896,60.4,90,34,5.48,RU,1689895135
325,Taro,-8.3862,115.28,68.0,87,42,1.95,ID,1689895136
326,Saynshand,44.8824,110.1163,65.57,71,100,19.28,MN,1689895137
327,Luocheng,29.3848,104.0286,72.5,97,99,1.25,CN,1689895138
328,Telêmaco Borba,-24.3239,-50.6156,56.98,97,8,3.09,BR,1689894845
329,Ivdel',60.6911,60.4206,56.26,95,58,3.87,RU,1689895141
330,Lendelede,50.8833,3.2333,61.14,85,100,1.83,BE,1689895142
331,Pangai,-19.8,-174.35,76.14,87,99,32.46,TO,1689895143
332,Wau,7.7029,27.9953,71.17,92,82,3.22,SS,1689895145
333,Jieshi,22.8134,115.8257,82.8,83,95,1.07,CN,1689895146
334,Puerto Baquerizo Moreno,-0.9,-89.6,77.09,82,51,12.12,EC,1689895147
335,Nizhnyaya Salda,58.0776,60.7202,53.64,96,42,5.66,RU,1689895148
336,Villa Gesell,-37.2639,-56.973,49.05,91,5,11.97,AR,1689895150
337,Klyuchi,52.2667,79.1667,67.15,60,25,7.87,RU,1689895151
338,Yingkou,40.6648,122.2283,80.22,58,66,2.89,CN,1689895152
339,Nikolayevsk-on-Amur,53.1406,140.73,74.14,71,76,2.39,RU,1689895153
340,Afaahiti,-17.75,-149.2833,76.87,66,16,19.22,PF,1689895154
341,Kānt,27.8,79.8,88.05,61,9,6.53,IN,1689895156
342,Matthew Town,20.95,-73.6667,84.4,75,100,16.58,BS,1689895157
343,Fedorovka,53.6314,62.7078,61.25,67,62,7.47,KZ,1689895158
344,Houma,29.5958,-90.7195,96.01,64,0,6.91,US,1689894887
345,Nova Viçosa,-17.8919,-39.3719,72.28,84,99,15.95,BR,1689895161
346,Xızı,40.9058,49.0813,70.0,66,0,3.18,AZ,1689895162
347,Nizhneangarsk,55.7833,109.55,57.58,63,6,8.34,RU,1689895163
348,Lan Sak,15.4529,99.5761,76.1,76,100,3.06,TH,1689895164
349,Chicoana,-25.1009,-65.5331,53.06,46,68,4.25,AR,1689895166
350,Dadukou,26.5479,101.7054,70.23,94,100,0.69,CN,1689895167
351,Port Hedland,-20.3167,118.5667,64.45,42,1,8.05,AU,1689895168
352,Guerrero Negro,27.9769,-114.0611,75.2,64,12,18.48,MX,1689895169
353,Mossendjo,-2.9506,12.7261,66.22,79,100,2.42,CG,1689895170
354,Copala,16.65,-98.9833,89.38,62,12,9.64,MX,1689895172
355,Manta,-0.95,-80.7333,82.18,78,40,15.01,EC,1689895173
356,Cadale,2.7603,46.3222,77.2,87,100,20.15,SO,1689895174
357,Angoche,-16.2325,39.9086,74.64,75,0,13.49,MZ,1689895175
358,Calabozo,8.9242,-67.4293,77.5,90,97,2.13,VE,1689895177
359,Myeik,12.4333,98.6,76.66,91,100,6.51,MM,1689895178
360,North Bend,43.4065,-124.2243,78.24,72,20,14.97,US,1689895179
361,La Paz Centro,12.34,-86.6753,90.99,51,89,11.99,NI,1689895180
362,Bengkulu,-3.8004,102.2655,74.07,90,94,4.52,ID,1689894981
363,Sanctuary Point,-35.1114,150.629,58.32,58,24,8.68,AU,1689895183
364,Kill Devil Hills,36.0307,-75.676,86.02,81,0,11.5,US,1689895184
365,Vadsø,70.0744,29.7487,49.08,87,100,18.41,NO,1689895185
366,Sungailiat,-1.85,106.1333,77.83,88,100,7.9,ID,1689895186
367,Arad,46.3333,21.75,64.31,54,5,1.7,RO,1689895187
368,Koné,-21.0595,164.8658,71.47,55,5,6.2,NC,1689895189
369,Griffith,41.5284,-87.4237,84.25,49,0,23.02,US,1689895190
370,Ketchikan,55.3422,-131.6461,70.27,64,40,9.22,US,1689895146
371,Mount Isa,-20.7333,139.5,69.57,46,75,10.36,AU,1689895192
372,Chimay,50.0486,4.3171,59.49,85,100,7.63,BE,1689895194
373,Mariehamn,60.0973,19.9348,49.86,100,0,1.14,AX,1689895173
374,Tangalle,6.024,80.7911,78.22,86,74,10.92,LK,1689895196
375,Zhalantun,48.0,122.7167,65.57,64,100,4.29,CN,1689895197
376,Mejit,10.2753,170.8646,83.07,83,89,18.86,MH,1689895199
377,Uruçuca,-14.5931,-39.2844,70.61,97,76,2.64,BR,1689895200
378,Codrington,-38.2667,141.9667,45.12,84,67,7.18,AU,1689895201
379,Bayanaul,50.7889,75.6956,64.09,60,5,7.54,KZ,1689895203
380,Penzance,50.1186,-5.5371,56.08,76,3,11.14,GB,1689895204
381,Xigazê,29.25,88.8833,57.38,49,26,3.36,CN,1689895206
382,Alice Springs,-23.7,133.8833,53.15,66,0,6.91,AU,1689895207
383,Salina Cruz,16.1667,-95.2,92.77,50,9,21.54,MX,1689895209
384,El Charco,2.4769,-78.1105,80.49,88,82,6.6,CO,1689895210
385,Taltal,-25.4,-70.4833,61.5,82,78,4.0,CL,1689895211
386,Sabang,5.8933,95.3214,83.52,73,98,21.61,ID,1689895212
387,Ceeldheer,3.8488,47.1806,76.89,84,95,23.42,SO,1689895213
388,Ad Dilam,23.9915,47.1627,93.61,11,92,3.4,SA,1689895215
389,Yangjiang,21.85,111.9667,79.84,90,87,1.48,CN,1689895216
390,Coquimbo,-29.9533,-71.3436,56.93,94,100,6.91,CL,1689894921
391,Bonthe,7.5264,-12.505,77.22,88,100,7.43,SL,1689895218
392,Halifax,44.6453,-63.5724,73.47,90,100,5.99,CA,1689894973
393,Cooper’s Town,26.8667,-77.5167,86.18,71,99,7.54,BS,1689895221
394,Christchurch,-43.5333,172.6333,47.91,74,40,4.61,NZ,1689895222
395,Arvayheer,46.2639,102.775,57.47,75,3,3.65,MN,1689895223
396,Port Blair,11.6667,92.75,81.18,84,100,16.37,IN,1689895225
397,Omdurman,15.6445,32.4777,94.41,33,94,16.53,SD,1689895226
398,Douz,33.4663,9.0203,93.54,16,0,12.93,TN,1689895227
399,Rābigh,22.7986,39.0349,86.67,65,59,7.43,SA,1689895228
400,Rancho Murieta,38.5019,-121.0947,106.65,19,0,6.91,US,1689895230
401,Labytnangi,66.6572,66.4183,62.51,92,74,1.9,RU,1689895231
402,Greenville,35.6127,-77.3663,87.82,78,0,0.0,US,1689895170
403,Cockburn Town,21.4612,-71.1419,82.4,81,99,20.0,TC,1689895213
404,Brookings,44.3114,-96.7984,77.25,57,40,8.05,US,1689895208
405,Palopo,-2.9996,120.1921,76.33,85,84,1.79,ID,1689895236
406,Xinzhou,38.4092,112.7333,70.02,82,38,0.76,CN,1689895237
407,Lamu,-2.2717,40.902,79.02,85,42,18.23,KE,1689895238
408,Newman,37.3138,-121.0208,102.54,7,0,4.59,US,1689895094
409,Horsham,51.064,-0.3272,63.01,68,0,5.75,GB,1689895102
410,Kapiri Mposhi,-13.9652,28.6809,56.16,60,1,4.83,ZM,1689895242
411,Dalandzadgad,43.5708,104.425,61.18,65,97,8.41,MN,1689895243
412,Baicheng,45.6167,122.8167,73.04,80,100,2.8,CN,1689895244
413,Santo Antônio do Içá,-3.1022,-67.9397,79.09,78,77,1.41,BR,1689895246
414,Beïnamar,8.6698,15.3813,72.93,87,75,4.18,TD,1689895247
415,Korla,41.7597,86.1469,86.97,26,80,10.51,CN,1689895120
416,Tomé Açu,-2.4189,-48.1522,80.46,62,23,4.07,BR,1689894989
417,Paramonga,-10.6667,-77.8333,68.52,77,10,8.21,PE,1689895250
418,Korsakov,46.6328,142.7813,67.84,88,54,7.56,RU,1689895252
419,Melo,-32.3667,-54.1833,55.78,97,99,7.63,UY,1689895253
420,Nemuro,43.3236,145.575,59.59,90,4,8.08,JP,1689895255
421,Kattivākkam,13.2167,80.3167,88.07,64,100,14.47,IN,1689895256
422,Dhidhdhoo,6.8833,73.1,82.76,80,100,16.13,MV,1689895257
423,Nabire,-3.3667,135.4833,79.23,86,83,3.38,ID,1689895258
424,Mirador,-6.3708,-44.3631,75.34,32,1,3.76,BR,1689895260
425,Las Palmas,28.4204,-14.0131,70.59,73,20,18.41,ES,1689895261
426,Al Mindak,20.1588,41.2834,78.4,15,97,8.05,SA,1689895262
427,Hotan,37.0997,79.9269,82.49,17,54,3.96,CN,1689895264
428,Chinoz,40.9364,68.7697,73.51,32,23,3.04,UZ,1689895265
429,Mariental,-24.6333,17.9667,49.3,30,3,5.97,NA,1689895266
430,Khandyga,62.6667,135.6,65.05,93,97,6.33,RU,1689895267
431,Portland,45.5234,-122.6762,91.53,42,20,5.75,US,1689894673
432,Ghadames,30.1337,9.5007,94.01,12,0,8.55,LY,1689895270
433,Castillos,-34.1667,-53.8333,54.93,91,99,6.69,UY,1689895271
434,Quepos,9.4236,-84.1652,84.22,78,96,2.62,CR,1689894979
435,Boyolangu,-8.1181,111.8935,69.53,93,45,1.9,ID,1689895274
436,Minturno,41.2576,13.7237,81.07,90,0,2.33,IT,1689895275
437,Gorontalo,0.5412,123.0595,77.43,88,7,3.98,ID,1689895276
438,Bonito,-21.1211,-56.4819,73.63,56,30,1.41,BR,1689895278
439,Riohacha,11.5444,-72.9072,88.36,59,6,18.32,CO,1689895039
440,South Houston,29.663,-95.2355,99.34,54,20,20.71,US,1689895280
441,Tommot,58.9564,126.2925,56.43,89,92,7.61,RU,1689895281
442,Ayoun El Atrous,16.6614,-9.6149,94.75,34,100,18.92,MR,1689895280
443,Atar,20.5169,-13.0499,99.55,18,5,8.52,MR,1689895284
444,Kayangel,8.0823,134.7173,83.79,78,99,17.31,PW,1689895285
445,San Juan,-31.5375,-68.5364,61.3,27,74,4.47,AR,1689895286
446,Al Jadīd,27.05,14.4,87.24,21,0,7.38,LY,1689895288
447,Tonalá,20.6167,-103.2333,83.32,34,75,0.0,MX,1689895289
448,Cherëmushki,52.8356,91.3944,64.56,95,100,3.65,RU,1689895290
449,Bamboo Flat,11.7,92.7167,81.23,84,100,16.17,IN,1689895292
450,Toppenish,46.3774,-120.3087,101.35,12,38,6.67,US,1689895167
451,Emmett,43.8735,-116.4993,103.89,16,1,12.73,US,1689895294
452,Nadi,-17.8,177.4167,84.2,65,20,4.61,FJ,1689895295
453,Galliano,29.4422,-90.2992,95.0,62,40,8.05,US,1689895296
454,Obuasi,6.206,-1.6619,70.86,99,50,2.55,GH,1689895298
455,Lospalos,-8.5186,127.0025,70.77,85,81,8.28,TL,1689895299
456,Cobija,-11.0267,-68.7692,80.78,69,20,3.44,BO,1689895301
457,Pākāla,13.4667,79.1167,79.41,60,100,15.59,IN,1689895302
458,Yeppoon,-23.1333,150.7333,69.26,66,1,3.96,AU,1689895304
459,Kununurra,-15.7667,128.7333,66.18,68,45,0.0,AU,1689895305
460,Cuajinicuilapa,16.4667,-98.4167,90.32,58,7,9.46,MX,1689895306
461,Ulladulla,-35.35,150.4667,56.52,56,24,8.23,AU,1689895307
462,Mitsamiouli,-11.3847,43.2844,79.45,73,99,11.1,KM,1689895309
463,Igrim,63.1906,64.4162,59.97,94,45,4.16,RU,1689895310
464,Bélel,7.05,14.4333,60.98,94,99,1.95,CM,1689895311
465,Kudahuvadhoo,2.6708,72.8944,82.74,74,99,8.1,MV,1689895312
466,Kirensk,57.7853,108.1119,63.23,68,10,1.48,RU,1689895314
467,Kiunga,-6.1219,141.2906,76.62,81,93,4.61,PG,1689895315
468,Garissa,-0.4536,39.6401,74.84,71,35,16.35,KE,1689895316
469,Diyarbakır,37.9158,40.2189,75.18,25,0,2.3,TR,1689895317
470,Urengoy,65.9667,78.3667,66.11,66,44,7.0,RU,1689895318
471,Bauru,-22.3147,-49.0606,70.74,68,0,10.36,BR,1689895320
472,Claveria,18.6074,121.0832,81.88,78,28,5.66,PH,1689895321
473,Fortaleza,-3.7227,-38.5247,80.22,78,0,6.91,BR,1689895208
474,Yuzhno-Kurilsk,44.0306,145.8556,60.1,87,27,7.96,RU,1689895329
475,Flin Flon,54.7682,-101.865,80.44,39,20,6.91,CA,1689895330
476,Lages,-27.8161,-50.3261,52.7,97,100,6.96,BR,1689895331
477,Igarka,67.4667,86.5833,61.43,96,100,11.9,RU,1689895333
478,Iquitos,-3.7481,-73.2472,77.04,83,40,0.0,PE,1689895334
479,Bossangoa,6.4926,17.4552,69.82,96,100,3.27,CF,1689895335
480,Howrah,22.5892,88.3103,82.4,94,75,8.05,IN,1689895327
481,Solnechnyy,50.7214,136.6319,81.12,52,80,3.96,RU,1689895338
482,East London,-33.0153,27.9116,57.11,51,100,14.38,ZA,1689895049
483,Santa Rosalía,27.3167,-112.2833,95.77,41,0,1.21,MX,1689895340
484,Udaipur,24.5712,73.6918,80.1,81,36,1.21,IN,1689895341
485,Arar,30.9753,41.0381,91.42,9,0,13.8,SA,1689895343
486,Sovata,46.5833,25.0667,60.96,89,0,2.8,RO,1689895344
487,Konark,19.9,86.1167,81.0,87,94,3.04,IN,1689895345
488,Rach Gia,10.0167,105.0833,79.29,86,100,18.92,VN,1689895346
489,North Shore,-36.8,174.75,55.47,86,100,4.0,NZ,1689895112
490,Tynda,55.1667,124.7167,59.0,70,25,3.27,RU,1689895349
491,Forster,-32.1667,152.5167,54.37,70,38,8.34,AU,1689895350
492,Xining,36.6167,101.7667,49.46,76,0,3.31,CN,1689895351
493,Nizhnesortymskiy,62.4397,71.7603,65.3,75,97,8.05,RU,1689895353
494,Mogador,31.5125,-9.77,78.3,79,0,10.36,MA,1689895354
495,Marvejols,44.5538,3.2914,59.27,80,20,1.72,FR,1689895355
496,Türkmenbaşy,40.0222,52.9552,81.37,44,0,9.22,TM,1689895357
497,Santander,43.4647,-3.8044,68.59,88,100,1.14,ES,1689895358
498,Tutóia,-2.7619,-42.2744,78.44,78,4,10.29,BR,1689895359
499,Nejdek,50.3224,12.7294,53.67,82,0,3.44,CZ,1689895360
500,Saldanha,-33.0117,17.9442,46.45,67,0,12.71,ZA,1689895361
501,Cascais,38.6979,-9.4215,68.05,79,0,17.0,PT,1689895252
502,Ola,59.5833,151.2833,73.15,79,15,5.97,RU,1689895364
503,Lae,-6.7221,146.9847,80.17,74,78,3.67,PG,1689895365
504,São Félix do Xingu,-6.6447,-51.995,76.37,41,5,1.95,BR,1689895366
505,São Vicente,-23.9631,-46.3919,69.98,26,72,7.7,BR,1689895081
506,Lebyazh'ye,55.2689,66.4947,60.98,94,97,7.74,RU,1689895369
507,Lerwick,60.1545,-1.1494,50.0,83,100,15.05,GB,1689895250
508,Lata,40.1629,-8.3327,57.49,99,10,2.37,PT,1689895371
509,Llanes,43.4198,-4.7549,66.18,82,42,2.39,ES,1689895372
510,Mananjary,-21.2167,48.3333,68.61,90,42,2.15,MG,1689895374
511,I-n-Salah,27.1935,2.4607,96.8,10,0,11.95,DZ,1689895375
512,Sittwe,20.15,92.9,79.81,91,100,11.88,MM,1689895376
513,Sarandí del Yi,-33.35,-55.6333,53.29,97,91,9.13,UY,1689895377
514,Dien Bien Phu,21.3833,103.0167,72.43,100,88,2.17,VN,1689895379
515,Yeniseysk,58.4497,92.1703,59.49,72,94,4.92,RU,1689895380
516,Realicó,-35.0366,-64.2447,54.88,56,100,9.89,AR,1689895381
517,Pont Rouge,48.8833,-72.0825,68.29,71,96,3.13,CA,1689895382
518,Prince Rupert,54.3161,-130.3201,64.09,91,0,9.22,CA,1689895253
519,Zaozërsk,69.4005,32.4476,46.87,92,100,15.19,RU,1689895385
520,Vidalia,32.2177,-82.4135,95.11,46,0,8.05,US,1689895386
521,Killarney,52.05,-9.5167,49.71,94,30,3.38,IE,1689895387
522,Okhotsk,59.3833,143.3,61.11,77,42,6.91,RU,1689895389
523,Cidreira,-30.1811,-50.2056,62.94,89,100,15.99,BR,1689895390
524,Pagar Alam,-4.0167,103.2667,68.02,94,100,2.57,ID,1689895391
525,Río Hato,8.3833,-80.1667,89.15,65,20,13.8,PA,1689895393
526,Gaogou,34.0175,119.1886,76.42,93,94,7.18,CN,1689895394
527,Bila Tserkva,49.8094,30.1121,57.22,97,27,7.11,UA,1689895395
528,Naze,28.3667,129.4833,81.52,79,100,8.63,JP,1689895396
529,Viedma,-40.8135,-62.9967,56.08,45,100,18.41,AR,1689895225
530,Praia da Vitória,38.7333,-27.0667,71.76,94,20,5.35,PT,1689895399
531,Sosnovo-Ozerskoye,52.5249,111.5418,56.32,62,88,6.42,RU,1689895400
532,Ulsteinvik,62.3432,5.8487,56.75,93,100,3.0,NO,1689895401
533,Papao,-17.75,-149.55,78.48,67,20,18.68,PF,1689895403
534,Malango,-2.9627,119.9001,67.41,97,86,0.94,ID,1689895404
535,Tôlanaro,-25.0319,46.9987,68.07,94,40,4.61,MG,1689895349
536,Glace Bay,46.1969,-59.957,73.06,93,75,3.0,CA,1689895406
537,Laguna Salada,19.6483,-71.0945,87.82,70,58,5.01,DO,1689895407
538,Pamandzi,-12.7967,45.2794,78.58,83,100,12.66,YT,1689895409
539,Zhigalovo,54.8097,105.1578,59.45,66,0,2.3,RU,1689895410
540,Waat,51.1454,6.4958,62.22,91,75,3.44,DE,1689895411
541,Missão Velha,-7.2497,-39.1431,79.29,53,20,5.75,BR,1689895412
542,Aracati,-4.5617,-37.7697,79.56,65,4,17.16,BR,1689895414
543,Sarai,53.7458,41.0213,55.65,84,17,5.44,RU,1689895415
544,Province of Mantua,45.1667,10.7833,79.41,91,28,4.59,IT,1689895416
545,Mount Pearl,47.5166,-52.7813,75.54,80,40,11.5,CA,1689895379
546,Burang,30.25,81.1667,53.91,73,95,3.13,CN,1689895419
547,Alofi,-19.0595,-169.9187,73.29,78,100,11.5,NU,1689895420
548,Eyl,7.9803,49.8164,78.37,70,41,23.15,SO,1689895421
549,Astara,38.5,48.6667,69.78,84,27,1.03,AZ,1689895422
550,Benguela,-12.5763,13.4055,66.04,85,45,5.26,AO,1689895423
551,Coelho Neto,-4.2567,-43.0128,76.87,45,3,1.86,BR,1689895425
552,Kānkānhalli,12.55,77.4167,70.43,82,93,14.61,IN,1689895426
553,Senanga,-16.1167,23.2667,57.87,37,42,6.8,ZM,1689895427
554,Awjilah,29.1081,21.2869,84.76,46,0,13.69,LY,1689895428
555,Baxter,46.3433,-94.2867,78.87,41,0,10.36,US,1689895429
556,Labuan,5.2767,115.2417,77.36,88,40,7.0,MY,1689895431
557,Guayama,17.9841,-66.1138,85.66,83,93,4.0,PR,1689895432
558,Doumé,4.2333,13.45,68.38,99,94,2.57,CM,1689895433
559,Pacasmayo,-7.4006,-79.5714,71.17,79,7,15.52,PE,1689895435
560,Brisas de Zicatela,15.8369,-97.0419,91.92,55,75,6.91,MX,1689895436
561,Bocana de Paiwas,12.7857,-85.1227,80.78,85,33,11.92,NI,1689895437
562,Fuglafjørður,62.244,-6.814,48.67,96,100,16.33,FO,1689895438
563,Luanda,-8.8368,13.2343,69.8,88,13,5.75,AO,1689895252
564,Ambodifotatra,-16.9833,49.85,73.65,90,95,12.39,MG,1689895441
565,Nuuk,64.1835,-51.7216,48.81,100,75,3.44,GL,1689895390
566,Abū Qurqāş,27.9312,30.8384,89.67,19,0,10.98,EG,1689895447
567,Roboré,-18.3333,-59.75,74.66,46,0,5.06,BO,1689895451
568,Revda,56.801,59.9303,54.03,87,47,7.23,RU,1689895452
569,Garachiko,28.7781,-17.7646,69.91,73,75,20.71,ES,1689895464
570,Karasburg,-28.0167,18.75,46.54,32,0,8.68,NA,1689895470
571,Kulhudhuffushi,6.6221,73.07,83.05,79,100,16.08,MV,1689895473
572,Coahuayana de Hidalgo,18.7,-103.6583,91.02,54,98,6.62,MX,1689895474
573,Miquelon,47.0975,-56.3814,64.4,100,100,15.66,PM,1689895476
574,Bereket,39.2446,55.5154,82.18,25,0,8.84,TM,1689895477
575,Boa Vista,2.8197,-60.6733,87.78,58,20,4.61,BR,1689895478
576,Nanchong,30.7951,106.0847,75.69,95,99,1.07,CN,1689895479
577,Coalinga,36.1397,-120.3602,100.65,11,0,2.35,US,1689895480
578,Calvinia,-31.4707,19.776,39.25,63,0,10.0,ZA,1689895482
579,Spearfish,44.4908,-103.8594,75.09,48,0,8.05,US,1689895344
